<?xml version="1.0" encoding="UTF-8"?>
<kml>
   <Document>
      <Placemark>
         <name>Yamato</name>
         <Point>
            <coordinates>135.76654,34.01624,0</coordinates>
         </Point>
      </Placemark>
      <Placemark>
         <name>Kagu-yama</name>
         <Point>
            <coordinates>131.283,31.567,0</coordinates>
         </Point>
      </Placemark>
      <Placemark>
         <name>Yamato</name>
         <Point>
            <coordinates>135.76654,34.01624,0</coordinates>
         </Point>
      </Placemark>
      <Placemark>
         <name>Kagu</name>
         <Point>
            <coordinates>131.283,31.567,0</coordinates>
         </Point>
      </Placemark>
      <Placemark>
         <name>Yamato</name>
         <Point>
            <coordinates>135.76654,34.01624,0</coordinates>
         </Point>
      </Placemark>
      <Placemark>
         <name>Aya</name>
         <Point>
            <coordinates>131.2532  ,31.9991,0</coordinates>
         </Point>
      </Placemark>
      <Placemark>
         <name>Sanuki</name>
         <Point>
            <coordinates>134.24813,34.28841,0</coordinates>
         </Point>
      </Placemark>
      <Placemark>
         <name>Ami</name>
         <Point>
            <coordinates>140.21479,36.03080,0</coordinates>
         </Point>
      </Placemark>
      <Placemark>
         <name>Mount
                        Kagu</name>
         <Point>
            <coordinates>131.283,31.567,0</coordinates>
         </Point>
      </Placemark>
      <Placemark>
         <name>Mount Miminashi</name>
         <Point>
            <coordinates>135.80537,34.51468,0</coordinates>
         </Point>
      </Placemark>
      <Placemark>
         <name>Mount Unebi</name>
         <Point>
            <coordinates>135.78495,34.49236,0</coordinates>
         </Point>
      </Placemark>
      <Placemark>
         <name>Mount
                            Kagu</name>
         <Point>
            <coordinates>131.283,31.567,0</coordinates>
         </Point>
      </Placemark>
      <Placemark>
         <name>Mount Miminashi</name>
         <Point>
            <coordinates>135.80537,34.51468,0</coordinates>
         </Point>
      </Placemark>
      <Placemark>
         <name>Inami</name>
         <Point>
            <coordinates>135.13,33.49,0</coordinates>
         </Point>
      </Placemark>
      <Placemark>
         <name>Omi</name>
         <Point>
            <coordinates>136.067,35.117,0</coordinates>
         </Point>
      </Placemark>
      <Placemark>
         <name>Miwa</name>
         <Point>
            <coordinates>135.86722,34.53518,0</coordinates>
         </Point>
      </Placemark>
      <Placemark>
         <name>Nara</name>
         <Point>
            <coordinates>135.80500,34.68509,0</coordinates>
         </Point>
      </Placemark>
      <Placemark>
         <name>Mount Miwa</name>
         <Point>
            <coordinates>135.86722,34.53518,0</coordinates>
         </Point>
      </Placemark>
      <Placemark>
         <name>isle of
                        Irago</name>
         <Point>
            <coordinates>137.000,34.567,0</coordinates>
         </Point>
      </Placemark>
      <Placemark>
         <name>Kagu</name>
         <Point>
            <coordinates>131.283,31.567,0</coordinates>
         </Point>
      </Placemark>
      <Placemark>
         <name>Fujiwara</name>
         <Point>
            <coordinates>135.79263,34.50945,0</coordinates>
         </Point>
      </Placemark>
      <Placemark>
         <name>Fuji</name>
         <Point>
            <coordinates>,,0</coordinates>
         </Point>
      </Placemark>
      <Placemark>
         <name>Kagu</name>
         <Point>
            <coordinates>131.283,31.567,0</coordinates>
         </Point>
      </Placemark>
      <Placemark>
         <name>Yamato</name>
         <Point>
            <coordinates>135.76654,34.01624,0</coordinates>
         </Point>
      </Placemark>
      <Placemark>
         <name>Unebi</name>
         <Point>
            <coordinates>135.78495,34.49236,0</coordinates>
         </Point>
      </Placemark>
      <Placemark>
         <name>Yoshinu</name>
         <Point>
            <coordinates>135.86697,34.36040,0</coordinates>
         </Point>
      </Placemark>
      <Placemark>
         <name>Fujiwara</name>
         <Point>
            <coordinates>135.79263,34.50945,0</coordinates>
         </Point>
      </Placemark>
      <Placemark>
         <name>China</name>
         <Point>
            <coordinates>104.1954,35.8617,0</coordinates>
         </Point>
      </Placemark>
      <Placemark>
         <name>Yamato</name>
         <Point>
            <coordinates>135.76654,34.01624,0</coordinates>
         </Point>
      </Placemark>
      <Placemark>
         <name>Mitsu</name>
         <Point>
            <coordinates>,,0</coordinates>
         </Point>
      </Placemark>
      <Placemark>
         <name>Otomo</name>
         <Point>
            <coordinates>,,0</coordinates>
         </Point>
      </Placemark>
      <Placemark>
         <name>Fujiwara</name>
         <Point>
            <coordinates>135.79263,34.50945,0</coordinates>
         </Point>
      </Placemark>
      <Placemark>
         <name>Nara</name>
         <Point>
            <coordinates>135.80500,34.68509,0</coordinates>
         </Point>
      </Placemark>
      <Placemark>
         <name>Hatsuse</name>
         <Point>
            <coordinates>139.633333,35.2,0</coordinates>
         </Point>
      </Placemark>
      <Placemark>
         <name>River
                        Saho</name>
         <Point>
            <coordinates>135.80500,34.68509,0</coordinates>
         </Point>
      </Placemark>
      <Placemark>
         <name>Nara</name>
         <Point>
            <coordinates>135.80500,34.68509,0</coordinates>
         </Point>
      </Placemark>
      <Placemark>
         <name>Ohara</name>
         <Point>
            <coordinates>135.67171,34.92920,0</coordinates>
         </Point>
      </Placemark>
      <Placemark>
         <name>Fujiwara</name>
         <Point>
            <coordinates>135.79263,34.50945,0</coordinates>
         </Point>
      </Placemark>
      <Placemark>
         <name>Ise</name>
         <Point>
            <coordinates>136.26962,34.48787,0</coordinates>
         </Point>
      </Placemark>
      <Placemark>
         <name>Yamato</name>
         <Point>
            <coordinates>135.76654,34.01624,0</coordinates>
         </Point>
      </Placemark>
      <Placemark>
         <name>Iwami</name>
         <Point>
            <coordinates>131.84286,34.67482,0</coordinates>
         </Point>
      </Placemark>
      <Placemark>
         <name>Heian</name>
         <Point>
            <coordinates>,,0</coordinates>
         </Point>
      </Placemark>
      <Placemark>
         <name>Tsunu</name>
         <Point>
            <coordinates>132.28540,35.58302,0</coordinates>
         </Point>
      </Placemark>
      <Placemark>
         <name>Watazu</name>
         <Point>
            <coordinates>132.23293,35.02349,0</coordinates>
         </Point>
      </Placemark>
      <Placemark>
         <name>Iwami</name>
         <Point>
            <coordinates>131.84286,34.67482,0</coordinates>
         </Point>
      </Placemark>
      <Placemark>
         <name>Iwami</name>
         <Point>
            <coordinates>131.84286,34.67482,0</coordinates>
         </Point>
      </Placemark>
      <Placemark>
         <name>Watari</name>
         <Point>
            <coordinates>140.8526,38.0375,0</coordinates>
         </Point>
      </Placemark>
      <Placemark>
         <name>Yakami</name>
         <Point>
            <coordinates>139.633333,35.2,0</coordinates>
         </Point>
      </Placemark>
      <Placemark>
         <name>Iwashiro</name>
         <Point>
            <coordinates>135.283322,33.7833302,0</coordinates>
         </Point>
      </Placemark>
      <Placemark>
         <name>Kohata</name>
         <Point>
            <coordinates>135.798856,34.924938,0</coordinates>
         </Point>
      </Placemark>
      <Placemark>
         <name>Asuka</name>
         <Point>
            <coordinates>135.8206,34.4713,0</coordinates>
         </Point>
      </Placemark>
      <Placemark>
         <name>Omi</name>
         <Point>
            <coordinates>136.067,35.117,0</coordinates>
         </Point>
      </Placemark>
      <Placemark>
         <name>Hatsuse</name>
         <Point>
            <coordinates>139.633333,35.2,0</coordinates>
         </Point>
      </Placemark>
      <Placemark>
         <name>Ise</name>
         <Point>
            <coordinates>136.26962,34.48787,0</coordinates>
         </Point>
      </Placemark>
      <Placemark>
         <name>Ise</name>
         <Point>
            <coordinates>136.26962,34.48787,0</coordinates>
         </Point>
      </Placemark>
      <Placemark>
         <name>Nara</name>
         <Point>
            <coordinates>135.80500,34.68509,0</coordinates>
         </Point>
      </Placemark>
      <Placemark>
         <name>Ashiki</name>
         <Point>
            <coordinates>130.55353,33.72891,0</coordinates>
         </Point>
      </Placemark>
      <Placemark>
         <name>Chikuzen</name>
         <Point>
            <coordinates>130.55353,33.72891,0</coordinates>
         </Point>
      </Placemark>
      <Placemark>
         <name>Dazaifu</name>
         <Point>
            <coordinates>130.5239,33.5128,0</coordinates>
         </Point>
      </Placemark>
      <Placemark>
         <name>Tsukushi</name>
         <Point>
            <coordinates>136.6067,35.0681,0</coordinates>
         </Point>
      </Placemark>
      <Placemark>
         <name>Fujiwara</name>
         <Point>
            <coordinates>135.80500,34.68509,0</coordinates>
         </Point>
      </Placemark>
      <Placemark>
         <name>Chikuzen</name>
         <Point>
            <coordinates>130.55353,33.72891,0</coordinates>
         </Point>
      </Placemark>
      <Placemark>
         <name>Nara</name>
         <Point>
            <coordinates>135.80500,34.68509,0</coordinates>
         </Point>
      </Placemark>
      <Placemark>
         <name>Nara</name>
         <Point>
            <coordinates>135.80500,34.68509,0</coordinates>
         </Point>
      </Placemark>
      <Placemark>
         <name>Nara</name>
         <Point>
            <coordinates>135.80500,34.68509,0</coordinates>
         </Point>
      </Placemark>
      <Placemark>
         <name>Tsukushi</name>
         <Point>
            <coordinates>136.6067,35.0681,0</coordinates>
         </Point>
      </Placemark>
      <Placemark>
         <name>Ise</name>
         <Point>
            <coordinates>136.26962,34.48787,0</coordinates>
         </Point>
      </Placemark>
      <Placemark>
         <name>Buzen</name>
         <Point>
            <coordinates>131.00946,33.60547,0</coordinates>
         </Point>
      </Placemark>
      <Placemark>
         <name>Kamunabi
                        River</name>
         <Point>
            <coordinates>135.817,34.467,0</coordinates>
         </Point>
      </Placemark>
      <Placemark>
         <name>Naniwa</name>
         <Point>
            <coordinates>135.5022,34.6937,0</coordinates>
         </Point>
      </Placemark>
      <Placemark>
         <name>China</name>
         <Point>
            <coordinates>104.1954,35.8617,0</coordinates>
         </Point>
      </Placemark>
      <Placemark>
         <name>Mitsu</name>
         <Point>
            <coordinates>135.50218,34.6937,0</coordinates>
         </Point>
      </Placemark>
      <Placemark>
         <name>Naniwa</name>
         <Point>
            <coordinates>135.5022,34.6937,0</coordinates>
         </Point>
      </Placemark>
   </Document>
</kml>
